{"version": 0.6, "generator": "Overpass API 0.7.61.5 4133829e", "osm3s": {"timestamp_osm_base": "2024-03-14T19:46:33Z", "copyright": "The data included in this document is from www.openstreetmap.org. The data is made available under ODbL."}, "elements": [{"type": "node", "id": 1185812239, "lat": 41.8396604, "lon": 43.3815128, "tags": {"amenity": "dentist", "healthcare": "dentist", "source": "JumpStart International"}}, {"type": "node", "id": 1185812260, "lat": 41.8418594, "lon": 43.3801906, "tags": {"amenity": "dentist", "healthcare": "dentist", "source": "JumpStart International"}}, {"type": "node", "id": 5132355421, "lat": 41.8391783, "lon": 43.3778371, "tags": {"amenity": "hospital", "healthcare": "hospital", "internet_access": "wlan", "name": "\u10db\u10d8\u10db\u10e6\u10d4\u10d1\u10d8 / \u10ef\u10d4\u10dd \u10f0\u10dd\u10e1\u10de\u10d8\u10e2\u10d0\u10da\u10e1\u10d8", "name:de": "Krankenhaus / Notaufnahme", "name:en": "EMERGENCY / Geo Hospitals", "phone": "2505222"}}, {"type": "node", "id": 10593538683, "lat": 41.7567832, "lon": 43.5273492, "tags": {"addr:city": "\u10d1\u10d0\u10d9\u10e3\u10e0\u10d8\u10d0\u10dc\u10d8", "amenity": "hospital", "healthcare": "hospital", "name": "\u10e1\u10d0\u10e1\u10ec\u10e0\u10d0\u10e4\u10dd \u10e1\u10d0\u10db\u10d4\u10d3\u10d8\u10ea\u10d8\u10dc\u10dd \u10d3\u10d0\u10ee\u10db\u10d0\u10e0\u10d4\u10d1\u10d8\u10e1 \u10ea\u10d4\u10dc\u10e2\u10e0\u10d8 112", "name:en": "Emergency medical center 112", "name:ka": "\u10e1\u10d0\u10e1\u10ec\u10e0\u10d0\u10e4\u10dd \u10e1\u10d0\u10db\u10d4\u10d3\u10d8\u10ea\u10d8\u10dc\u10dd \u10d3\u10d0\u10ee\u10db\u10d0\u10e0\u10d4\u10d1\u10d8\u10e1 \u10ea\u10d4\u10dc\u10e2\u10e0\u10d8 112"}}, {"type": "node", "id": 10593538684, "lat": 41.7571934, "lon": 43.5275719, "tags": {"amenity": "hospital", "healthcare": "hospital", "name": "\u10e1\u10d0\u10db\u10d4\u10d3\u10d8\u10ea\u10d8\u10dc\u10dd \u10ea\u10d4\u10dc\u10e2\u10e0\u10d8", "name:en": "Medical center", "name:ka": "\u10e1\u10d0\u10db\u10d4\u10d3\u10d8\u10ea\u10d8\u10dc\u10dd \u10ea\u10d4\u10dc\u10e2\u10e0\u10d8"}}]}